<?xml version="1.0" encoding="UTF-8"?><FDSNStationXML xmlns="http://www.fdsn.org/xml/station/1" schemaVersion="1.1"><Source>SeisComP</Source><Sender>KOERI</Sender><Created>2020-10-04T05:09:58.088091</Created><Network code="KO" startDate="1980-01-01T00:00:00" restrictedStatus="open"><Description>Kandilli Observatory BB and SM Stations</Description><Station code="ADVT" startDate="2006-05-19T00:00:00" restrictedStatus="open"><Latitude>40.4332</Latitude><Longitude>29.7383</Longitude><Elevation>193</Elevation><Site><Name>Abdulvahap-Iznik-BURSA</Name></Site><CreationDate>2006-05-19T00:00:00</CreationDate></Station><Station code="AFSR" startDate="2008-09-05T00:00:00" restrictedStatus="open"><Latitude>39.4468</Latitude><Longitude>33.0707</Longitude><Elevation>1055</Elevation><Site><Name>Afsar-ANKARA</Name></Site><CreationDate>2008-09-05T00:00:00</CreationDate></Station><Station code="AGRB" startDate="2006-11-21T00:00:00" restrictedStatus="open"><Latitude>39.5755</Latitude><Longitude>42.992</Longitude><Elevation>1820</Elevation><Site><Name>AGRI</Name></Site><CreationDate>2006-11-21T00:00:00</CreationDate></Station><Station code="AKDM" startDate="2012-11-29T00:00:00" restrictedStatus="open"><Latitude>38.3285</Latitude><Longitude>42.98</Longitude><Elevation>1662</Elevation><Site><Name>Akdamar-VAN</Name></Site><CreationDate>2012-11-29T00:00:00</CreationDate></Station><Station code="AKDN" startDate="2008-01-01T00:00:00" restrictedStatus="open"><Latitude>35.297</Latitude><Longitude>32.9683</Longitude><Elevation>85</Elevation><Site><Name>Akdeniz-KKKTC</Name></Site><CreationDate>2008-01-01T00:00:00</CreationDate></Station><Station code="AKIN" startDate="2008-01-01T00:00:00" restrictedStatus="open"><Latitude>35.0117</Latitude><Longitude>33.4662</Longitude><Elevation>225</Elevation><Site><Name>Akincilar-KKTC</Name></Site><CreationDate>2008-01-01T00:00:00</CreationDate></Station><Station code="AKS" startDate="2011-01-01T00:00:00" restrictedStatus="open"><Latitude>38.8785</Latitude><Longitude>27.8129</Longitude><Elevation>385</Elevation><Site><Name>Akhisar-MANISA</Name></Site><CreationDate>2011-01-01T00:00:00</CreationDate></Station><Station code="ALAN" startDate="2011-01-01T00:00:00" restrictedStatus="open"><Latitude>36.557</Latitude><Longitude>32.0327</Longitude><Elevation>215</Elevation><Site><Name>Alanya-ANTALYA</Name></Site><CreationDate>2011-01-01T00:00:00</CreationDate></Station><Station code="ANTB" startDate="2005-01-05T00:00:00" restrictedStatus="open"><Latitude>36.8998</Latitude><Longitude>30.6538</Longitude><Elevation>20</Elevation><Site><Name>ANTALYA</Name></Site><CreationDate>2005-01-05T00:00:00</CreationDate></Station><Station code="ARMT" startDate="2007-12-17T00:00:00" restrictedStatus="open"><Latitude>40.5683</Latitude><Longitude>28.866</Longitude><Elevation>320</Elevation><Site><Name>Armutlu-YALOVA</Name></Site><CreationDate>2007-12-17T00:00:00</CreationDate></Station><Station code="ARPR" startDate="2013-01-01T00:00:00" restrictedStatus="open"><Latitude>39.092899</Latitude><Longitude>38.33559</Longitude><Elevation>1522</Elevation><Site><Name>Arapgir-MALATYA</Name></Site><CreationDate>2013-01-01T00:00:00</CreationDate></Station><Station code="AYDB" startDate="2009-10-03T00:00:00" restrictedStatus="open"><Latitude>37.9467</Latitude><Longitude>27.8908</Longitude><Elevation>1246</Elevation><Site><Name>AYDIN</Name></Site><CreationDate>2009-10-03T00:00:00</CreationDate></Station><Station code="BALB" startDate="2007-06-15T00:00:00" restrictedStatus="open"><Latitude>39.64</Latitude><Longitude>27.88</Longitude><Elevation>120</Elevation><Site><Name>BALIKESIR</Name></Site><CreationDate>2007-06-15T00:00:00</CreationDate></Station><Station code="BASM" startDate="2013-01-01T00:00:00" restrictedStatus="open"><Latitude>37.919364</Latitude><Longitude>30.034952</Longitude><Elevation>1012</Elevation><Site><Name>Basmakci-Afyon</Name></Site><CreationDate>2013-01-01T00:00:00</CreationDate></Station><Station code="BAYT" startDate="2008-09-12T00:00:00" restrictedStatus="open"><Latitude>40.3937</Latitude><Longitude>40.141</Longitude><Elevation>1680</Elevation><Site><Name>BAYBURT</Name></Site><CreationDate>2008-09-12T00:00:00</CreationDate></Station><Station code="BBRN" startDate="2011-08-08T00:00:00" restrictedStatus="open"><Latitude>36.6797</Latitude><Longitude>28.0587</Longitude><Elevation>194</Elevation><Site><Name>Bozburun-Bodrum-MUGLA</Name></Site><CreationDate>2011-08-08T00:00:00</CreationDate></Station><Station code="BCA" startDate="2006-05-24T00:00:00" restrictedStatus="open"><Latitude>41.445</Latitude><Longitude>41.6223</Longitude><Elevation>500</Elevation><Site><Name>Borcka-ARTVIN</Name></Site><CreationDate>2006-05-24T00:00:00</CreationDate></Station><Station code="BCK" startDate="2007-03-29T00:00:00" restrictedStatus="open"><Latitude>37.461</Latitude><Longitude>30.5877</Longitude><Elevation>859</Elevation><Site><Name>Bucak-AFYON</Name></Site><CreationDate>2007-03-29T00:00:00</CreationDate></Station><Station code="BGKT" startDate="2007-05-29T00:00:00" restrictedStatus="open"><Latitude>41.181</Latitude><Longitude>28.773</Longitude><Elevation>80</Elevation><Site><Name>Bogazkoy-ISTANBUL</Name></Site><CreationDate>2007-05-29T00:00:00</CreationDate></Station><Station code="BLCB" startDate="2004-10-04T00:00:00" restrictedStatus="open"><Latitude>38.3853</Latitude><Longitude>27.042</Longitude><Elevation>150</Elevation><Site><Name>Balcova-IZMIR</Name></Site><CreationDate>2004-10-04T00:00:00</CreationDate></Station><Station code="BNGB" startDate="2008-11-21T00:00:00" restrictedStatus="open"><Latitude>38.9913</Latitude><Longitude>40.6792</Longitude><Elevation>1180</Elevation><Site><Name>BINGOL</Name></Site><CreationDate>2008-11-21T00:00:00</CreationDate></Station><Station code="BNN" startDate="2007-01-23T00:00:00" restrictedStatus="open"><Latitude>38.8522</Latitude><Longitude>35.8472</Longitude><Elevation>1380</Elevation><Site><Name>Bunyan KAYSERI</Name></Site><CreationDate>2007-01-23T00:00:00</CreationDate></Station><Station code="BODT" startDate="2005-02-14T00:00:00" restrictedStatus="open"><Latitude>37.0622</Latitude><Longitude>27.3103</Longitude><Elevation>379</Elevation><Site><Name>Bodrum-MUGLA</Name></Site><CreationDate>2005-02-14T00:00:00</CreationDate></Station><Station code="BOZY" startDate="2011-01-01T00:00:00" restrictedStatus="open"><Latitude>36.1069</Latitude><Longitude>32.9763</Longitude><Elevation>9</Elevation><Site><Name>Bozyazi-MERSIN</Name></Site><CreationDate>2011-01-01T00:00:00</CreationDate></Station><Station code="BZK" startDate="2006-08-03T00:00:00" restrictedStatus="open"><Latitude>41.96</Latitude><Longitude>34.0035</Longitude><Elevation>158</Elevation><Site><Name>Bozkurt-KASTAMONU</Name></Site><CreationDate>2006-08-03T00:00:00</CreationDate></Station><Station code="CAME" startDate="2014-01-01T00:00:00" restrictedStatus="open"><Latitude>37.919364</Latitude><Longitude>29.3023</Longitude><Elevation>1391</Elevation><Site><Name>Cameli-Denizli</Name></Site><CreationDate>2014-01-01T00:00:00</CreationDate></Station><Station code="CAND" startDate="2011-01-01T00:00:00" restrictedStatus="open"><Latitude>38.9542</Latitude><Longitude>26.8031</Longitude><Elevation>157</Elevation><Site><Name>Candarli-IZMIR</Name></Site><CreationDate>2011-01-01T00:00:00</CreationDate></Station><Station code="CANT" startDate="2006-12-12T00:00:00" restrictedStatus="open"><Latitude>40.6062</Latitude><Longitude>33.6197</Longitude><Elevation>815</Elevation><Site><Name>CANKIRI</Name></Site><CreationDate>2006-12-12T00:00:00</CreationDate></Station><Station code="CAVI" startDate="2007-09-27T00:00:00" restrictedStatus="open"><Latitude>40.2018</Latitude><Longitude>29.8377</Longitude><Elevation>670</Elevation><Site><Name>Cavuskoy-KUTAHYA</Name></Site><CreationDate>2007-09-27T00:00:00</CreationDate></Station><Station code="CESE" startDate="2011-01-01T00:00:00" restrictedStatus="open"><Latitude>38.3306</Latitude><Longitude>26.2997</Longitude><Elevation>95</Elevation><Site><Name>Cesme-IZMIR</Name></Site><CreationDate>2011-01-01T00:00:00</CreationDate></Station><Station code="CEYT" startDate="2005-08-24T00:00:00" restrictedStatus="open"><Latitude>37.0107</Latitude><Longitude>35.7478</Longitude><Elevation>100</Elevation><Site><Name>Ceyhan-ADANA</Name></Site><CreationDate>2005-08-24T00:00:00</CreationDate></Station><Station code="CHAY" startDate="2011-01-01T00:00:00" restrictedStatus="open"><Latitude>41.0918</Latitude><Longitude>40.7253</Longitude><Elevation>60</Elevation><Site><Name>Cayeli-RIZE</Name></Site><CreationDate>2011-01-01T00:00:00</CreationDate></Station><Station code="CHBY" startDate="2009-06-01T00:00:00" restrictedStatus="open"><Latitude>38.5823</Latitude><Longitude>32.8902</Longitude><Elevation>1086</Elevation><Site><Name>Cihanbeyli-KONYA</Name></Site><CreationDate>2009-06-01T00:00:00</CreationDate></Station><Station code="CHOM" startDate="2012-03-23T00:00:00" restrictedStatus="open"><Latitude>41.097</Latitude><Longitude>40.7612</Longitude><Elevation>422</Elevation><Site><Name>Cayeli-RIZE</Name></Site><CreationDate>2012-03-23T00:00:00</CreationDate></Station><Station code="CLDR" startDate="2004-12-16T00:00:00" restrictedStatus="open"><Latitude>39.144</Latitude><Longitude>43.9172</Longitude><Elevation>2094</Elevation><Site><Name>Caldiran-VAN</Name></Site><CreationDate>2004-12-16T00:00:00</CreationDate></Station><Station code="CMRD" startDate="2013-01-01T00:00:00" restrictedStatus="open"><Latitude>37.662334</Latitude><Longitude>34.990186</Longitude><Elevation>1427</Elevation><Site><Name>Camardi-Nigde</Name></Site><CreationDate>2013-01-01T00:00:00</CreationDate></Station><Station code="CORM" startDate="2004-10-08T00:00:00" restrictedStatus="open"><Latitude>40.1785</Latitude><Longitude>34.6302</Longitude><Elevation>1292</Elevation><Site><Name>CORUM</Name></Site><CreationDate>2004-10-08T00:00:00</CreationDate></Station><Station code="CRLT" startDate="2007-08-01T00:00:00" restrictedStatus="open"><Latitude>41.129</Latitude><Longitude>27.736</Longitude><Elevation>230</Elevation><Site><Name>Corlu-TEKIRDAG</Name></Site><CreationDate>2007-08-01T00:00:00</CreationDate></Station><Station code="CTKS" startDate="2007-09-28T00:00:00" restrictedStatus="open"><Latitude>41.2373</Latitude><Longitude>28.5072</Longitude><Elevation>47</Elevation><Site><Name>Kestanelik-ISTANBUL</Name></Site><CreationDate>2007-09-28T00:00:00</CreationDate></Station><Station code="CTYL" startDate="2007-09-29T00:00:00" restrictedStatus="open"><Latitude>41.476</Latitude><Longitude>28.2897</Longitude><Elevation>77</Elevation><Site><Name>Catalca-ISTANBUL</Name></Site><CreationDate>2007-09-29T00:00:00</CreationDate></Station><Station code="CUKT" startDate="2005-10-01T00:00:00" restrictedStatus="open"><Latitude>37.2473</Latitude><Longitude>43.6077</Longitude><Elevation>1298</Elevation><Site><Name>Cukurca-HAKKARI</Name></Site><CreationDate>2005-10-01T00:00:00</CreationDate></Station><Station code="CUND" startDate="2011-01-01T00:00:00" restrictedStatus="open"><Latitude>39.336</Latitude><Longitude>26.6663</Longitude><Elevation>10</Elevation><Site><Name>Cunda Adasi</Name></Site><CreationDate>2011-01-01T00:00:00</CreationDate></Station><Station code="DALY" startDate="2009-04-10T00:00:00" restrictedStatus="open"><Latitude>36.8162</Latitude><Longitude>28.6532</Longitude><Elevation>100</Elevation><Site><Name>Dalyan-MUGLA</Name></Site><CreationDate>2009-04-10T00:00:00</CreationDate></Station><Station code="DARE" startDate="2010-06-20T00:00:00" restrictedStatus="open"><Latitude>38.5712</Latitude><Longitude>37.4832</Longitude><Elevation>1080</Elevation><Site><Name>Darende-MALATYA</Name></Site><CreationDate>2010-06-20T00:00:00</CreationDate></Station><Station code="DAT" startDate="2010-12-28T00:00:00" restrictedStatus="open"><Latitude>36.7308</Latitude><Longitude>27.5767</Longitude><Elevation>1100</Elevation><Site><Name>Datca-MUGLA</Name></Site><CreationDate>2010-12-28T00:00:00</CreationDate></Station><Station code="DATC" startDate="2011-01-01T00:00:00" restrictedStatus="open"><Latitude>36.7584</Latitude><Longitude>27.6602</Longitude><Elevation>94</Elevation><Site><Name>Datca-MUGLA</Name></Site><CreationDate>2011-01-01T00:00:00</CreationDate></Station><Station code="DEMR" startDate="2011-01-01T00:00:00" restrictedStatus="open"><Latitude>36.2365</Latitude><Longitude>29.9056</Longitude><Elevation>168</Elevation><Site><Name>Demre-ANTALYA</Name></Site><CreationDate>2011-01-01T00:00:00</CreationDate></Station><Station code="DENT" startDate="2011-01-01T00:00:00" restrictedStatus="open"><Latitude>37.7539</Latitude><Longitude>29.0331</Longitude><Elevation>621</Elevation><Site><Name>DENIZLI</Name></Site><CreationDate>2011-01-01T00:00:00</CreationDate></Station><Station code="DIDI" startDate="2011-01-01T00:00:00" restrictedStatus="open"><Latitude>37.3767</Latitude><Longitude>27.2398</Longitude><Elevation>75</Elevation><Site><Name>Didim-AYDIN</Name></Site><CreationDate>2011-01-01T00:00:00</CreationDate></Station><Station code="DIKM" startDate="2006-06-27T00:00:00" restrictedStatus="open"><Latitude>41.6497</Latitude><Longitude>35.2578</Longitude><Elevation>261</Elevation><Site><Name>Dikmen-SAMSUN</Name></Site><CreationDate>2006-06-27T00:00:00</CreationDate></Station><Station code="DKL" startDate="2010-07-22T00:00:00" restrictedStatus="open"><Latitude>39.0713</Latitude><Longitude>26.9053</Longitude><Elevation>35</Elevation><Site><Name>Dikili-IZMIR</Name></Site><CreationDate>2010-07-22T00:00:00</CreationDate></Station><Station code="DORT" startDate="2011-01-01T00:00:00" restrictedStatus="open"><Latitude>36.826</Latitude><Longitude>36.1968</Longitude><Elevation>27</Elevation><Site><Name>Dortyol-HATAY</Name></Site><CreationDate>2011-01-01T00:00:00</CreationDate></Station><Station code="DST" startDate="2011-01-01T00:00:00" restrictedStatus="open"><Latitude>39.6041</Latitude><Longitude>28.6267</Longitude><Elevation>693</Elevation><Site><Name>Dursunbey-BALIKESIR</Name></Site><CreationDate>2011-01-01T00:00:00</CreationDate></Station><Station code="DYBB" startDate="2009-12-10T00:00:00" restrictedStatus="open"><Latitude>37.9532</Latitude><Longitude>40.1393</Longitude><Elevation>657</Elevation><Site><Name>DIYARBAKIR</Name></Site><CreationDate>2009-12-10T00:00:00</CreationDate></Station><Station code="EDC" startDate="2008-11-27T00:00:00" restrictedStatus="open"><Latitude>40.3465</Latitude><Longitude>27.8618</Longitude><Elevation>257</Elevation><Site><Name>Edincik-BALIKESIR</Name></Site><CreationDate>2008-11-27T00:00:00</CreationDate></Station><Station code="EDRB" startDate="2007-04-18T00:00:00" restrictedStatus="open"><Latitude>41.847</Latitude><Longitude>26.7437</Longitude><Elevation>209</Elevation><Site><Name>EDIRNE</Name></Site><CreationDate>2007-04-18T00:00:00</CreationDate></Station><Station code="ELL" startDate="2006-09-20T00:00:00" restrictedStatus="open"><Latitude>36.7483</Latitude><Longitude>29.9085</Longitude><Elevation>1230</Elevation><Site><Name>Elmali-ANTALYA</Name></Site><CreationDate>2006-09-20T00:00:00</CreationDate></Station><Station code="ENEZ" startDate="2006-06-21T00:00:00" restrictedStatus="open"><Latitude>40.7362</Latitude><Longitude>26.153</Longitude><Elevation>100</Elevation><Site><Name>Enez-EDIRNE</Name></Site><CreationDate>2006-06-21T00:00:00</CreationDate></Station><Station code="ENZZ" startDate="2011-01-01T00:00:00" restrictedStatus="open"><Latitude>40.607</Latitude><Longitude>26.1406</Longitude><Elevation>11</Elevation><Site><Name>Enez-EDIRNE</Name></Site><CreationDate>2011-01-01T00:00:00</CreationDate></Station><Station code="ERCV" startDate="2011-01-01T00:00:00" restrictedStatus="open"><Latitude>39.0198</Latitude><Longitude>43.3381</Longitude><Elevation>1679</Elevation><Site><Name>Ercis-VAN</Name></Site><CreationDate>2011-01-01T00:00:00</CreationDate></Station><Station code="EREN" startDate="2007-03-21T00:00:00" restrictedStatus="open"><Latitude>35.5292</Latitude><Longitude>34.1742</Longitude><Elevation>88</Elevation><Site><Name>Erenk.y-KIBRIS</Name></Site><CreationDate>2007-03-21T00:00:00</CreationDate></Station><Station code="ERIK" startDate="2008-07-02T00:00:00" restrictedStatus="open"><Latitude>40.6708</Latitude><Longitude>26.5132</Longitude><Elevation>38</Elevation><Site><Name>Erikli-ED0RNE</Name></Site><CreationDate>2008-07-02T00:00:00</CreationDate></Station><Station code="ERZN" startDate="2008-10-15T00:00:00" restrictedStatus="open"><Latitude>39.5867</Latitude><Longitude>39.722</Longitude><Elevation>1317</Elevation><Site><Name>ERZINCAN</Name></Site><CreationDate>2008-10-15T00:00:00</CreationDate></Station><Station code="ESKT" startDate="2011-01-01T00:00:00" restrictedStatus="open"><Latitude>39.5212</Latitude><Longitude>30.8492</Longitude><Elevation>1295</Elevation><Site><Name>ESKISEHIR</Name></Site><CreationDate>2011-01-01T00:00:00</CreationDate></Station><Station code="ESPY" startDate="2007-03-02T00:00:00" restrictedStatus="open"><Latitude>40.9167</Latitude><Longitude>38.7273</Longitude><Elevation>430</Elevation><Site><Name>Espiye-G0RESUN</Name></Site><CreationDate>2007-03-02T00:00:00</CreationDate></Station><Station code="EZN" startDate="2007-11-09T00:00:00" restrictedStatus="open"><Latitude>39.8255</Latitude><Longitude>26.3247</Longitude><Elevation>48</Elevation><Site><Name>Ezine-CANAKKALE</Name></Site><CreationDate>2007-11-09T00:00:00</CreationDate></Station><Station code="FETI" startDate="2011-01-01T00:00:00" restrictedStatus="open"><Latitude>36.6903</Latitude><Longitude>29.0968</Longitude><Elevation>11</Elevation><Site><Name>Fethiye-MUGLA</Name></Site><CreationDate>2011-01-01T00:00:00</CreationDate></Station><Station code="FETY" startDate="2004-12-03T00:00:00" restrictedStatus="open"><Latitude>36.6353</Latitude><Longitude>29.0835</Longitude><Elevation>200</Elevation><Site><Name>Fethiye-MUGLA</Name></Site><CreationDate>2004-12-03T00:00:00</CreationDate></Station><Station code="FOCM" startDate="2011-01-01T00:00:00" restrictedStatus="open"><Latitude>38.7131</Latitude><Longitude>26.7309</Longitude><Elevation>34</Elevation><Site><Name>Foca-IZMIR</Name></Site><CreationDate>2011-01-01T00:00:00</CreationDate></Station><Station code="GADA" startDate="2010-04-19T00:00:00" restrictedStatus="open"><Latitude>40.1908</Latitude><Longitude>25.8987</Longitude><Elevation>59</Elevation><Site><Name>Gokceada-CANAKKALE</Name></Site><CreationDate>2010-04-19T00:00:00</CreationDate></Station><Station code="GAZ" startDate="2010-08-18T00:00:00" restrictedStatus="open"><Latitude>37.1722</Latitude><Longitude>37.2097</Longitude><Elevation>992</Elevation><Site><Name>GAZIANTEP</Name></Site><CreationDate>2010-08-18T00:00:00</CreationDate></Station><Station code="GEDZ" startDate="2011-06-01T00:00:00" restrictedStatus="open"><Latitude>39.0445</Latitude><Longitude>29.4105</Longitude><Elevation>883</Elevation><Site><Name>Gediz-KUTAHYA</Name></Site><CreationDate>2011-06-01T00:00:00</CreationDate></Station><Station code="GELI" startDate="2008-07-05T00:00:00" restrictedStatus="open"><Latitude>40.398</Latitude><Longitude>26.4742</Longitude><Elevation>126</Elevation><Site><Name>Gelibolu-CANAKKALE</Name></Site><CreationDate>2008-07-05T00:00:00</CreationDate></Station><Station code="GEMT" startDate="2006-07-07T00:00:00" restrictedStatus="open"><Latitude>40.435</Latitude><Longitude>29.189</Longitude><Elevation>220</Elevation><Site><Name>Gemlik-BURSA</Name></Site><CreationDate>2006-07-07T00:00:00</CreationDate></Station><Station code="GLHS" startDate="2006-09-03T00:00:00" restrictedStatus="open"><Latitude>37.156</Latitude><Longitude>29.4983</Longitude><Elevation>1100</Elevation><Site><Name>Golhisar-BURDUR</Name></Site><CreationDate>2006-09-03T00:00:00</CreationDate></Station><Station code="GMLD" startDate="2011-01-01T00:00:00" restrictedStatus="open"><Latitude>38.0764</Latitude><Longitude>26.8747</Longitude><Elevation>10</Elevation><Site><Name>Gumuldur-IZMIR</Name></Site><CreationDate>2011-01-01T00:00:00</CreationDate></Station><Station code="GOKC" startDate="2011-08-08T00:00:00" restrictedStatus="open"><Latitude>40.1998</Latitude><Longitude>25.9183</Longitude><Elevation>123</Elevation><Site><Name>Gokceada</Name></Site><CreationDate>2011-08-08T00:00:00</CreationDate></Station><Station code="GOMA" startDate="2011-01-01T00:00:00" restrictedStatus="open"><Latitude>38.7077</Latitude><Longitude>27.9175</Longitude><Elevation>110</Elevation><Site><Name>KOAC-GOMA</Name></Site><CreationDate>2011-01-01T00:00:00</CreationDate></Station><Station code="GONE" startDate="2011-01-01T00:00:00" restrictedStatus="open"><Latitude>40.0466</Latitude><Longitude>27.686</Longitude><Elevation>143</Elevation><Site><Name>Gonen-BALIKESIR</Name></Site><CreationDate>2011-01-01T00:00:00</CreationDate></Station><Station code="GPA" startDate="2011-01-01T00:00:00" restrictedStatus="open"><Latitude>40.285</Latitude><Longitude>30.3167</Longitude><Elevation>570</Elevation><Site><Name>Golpazari-BILECIK</Name></Site><CreationDate>2011-01-01T00:00:00</CreationDate></Station><Station code="GPNR" startDate="2011-01-01T00:00:00" restrictedStatus="open"><Latitude>39.4552</Latitude><Longitude>26.1329</Longitude><Elevation>570</Elevation><Site><Name>Gurpinar-CANAKKALE</Name></Site><CreationDate>2011-01-01T00:00:00</CreationDate></Station><Station code="GRDE" startDate="2011-01-01T00:00:00" restrictedStatus="open"><Latitude>40.7995</Latitude><Longitude>32.2116</Longitude><Elevation>5</Elevation><Site><Name>Gerede-BOLU</Name></Site><CreationDate>2011-01-01T00:00:00</CreationDate></Station><Station code="GULA" startDate="2009-06-01T00:00:00" restrictedStatus="open"><Latitude>38.34438</Latitude><Longitude>34.23597</Longitude><Elevation>1126</Elevation><Site><Name>Gulagac-KONYA</Name></Site><CreationDate>2009-06-01T00:00:00</CreationDate></Station><Station code="GULT" startDate="2007-09-15T00:00:00" restrictedStatus="open"><Latitude>40.432</Latitude><Longitude>30.5156</Longitude><Elevation>942</Elevation><Site><Name>Gulveren-Tarakli-SAKARYA</Name></Site><CreationDate>2007-09-15T00:00:00</CreationDate></Station><Station code="GUMT" startDate="2011-01-01T00:00:00" restrictedStatus="open"><Latitude>40.4675</Latitude><Longitude>39.478</Longitude><Elevation>1326</Elevation><Site><Name>GUMUSHANE</Name></Site><CreationDate>2011-01-01T00:00:00</CreationDate></Station><Station code="GURO" startDate="2011-10-25T00:00:00" restrictedStatus="open"><Latitude>38.5509</Latitude><Longitude>42.03222</Longitude><Elevation>1388</Elevation><Site><Name>Guroymak-BITLIS</Name></Site><CreationDate>2011-10-25T00:00:00</CreationDate></Station><Station code="HDMB" startDate="2011-06-01T00:00:00" restrictedStatus="open"><Latitude>36.964</Latitude><Longitude>32.486</Longitude><Elevation>1946</Elevation><Site><Name>Hadim-KONYA</Name></Site><CreationDate>2011-06-01T00:00:00</CreationDate></Station><Station code="HOPA" startDate="2011-01-01T00:00:00" restrictedStatus="open"><Latitude>41.3867</Latitude><Longitude>41.4458</Longitude><Elevation>100</Elevation><Site><Name>Hopa-ARTVIN</Name></Site><CreationDate>2011-01-01T00:00:00</CreationDate></Station><Station code="HRTX" startDate="2008-04-03T00:00:00" restrictedStatus="open"><Latitude>40.801</Latitude><Longitude>29.673</Longitude><Elevation>573</Elevation><Site><Name>Hereke-KOCAELI</Name></Site><CreationDate>2008-04-03T00:00:00</CreationDate></Station><Station code="IKL" startDate="2011-02-19T00:00:00" restrictedStatus="open"><Latitude>36.2367</Latitude><Longitude>33.6845</Longitude><Elevation>126</Elevation><Site><Name>Isikli-MERSIN</Name></Site><CreationDate>2011-02-19T00:00:00</CreationDate></Station><Station code="ILIC" startDate="2008-12-25T00:00:00" restrictedStatus="open"><Latitude>39.4518</Latitude><Longitude>38.5675</Longitude><Elevation>1295</Elevation><Site><Name>Ilic-ERZINCAN</Name></Site><CreationDate>2008-12-25T00:00:00</CreationDate></Station><Station code="ISK" startDate="2007-01-25T00:00:00" restrictedStatus="open"><Latitude>41.0657</Latitude><Longitude>29.0592</Longitude><Elevation>132</Elevation><Site><Name>Kandilli-ISTANBUL</Name></Site><CreationDate>2007-01-25T00:00:00</CreationDate></Station><Station code="IZI" startDate="2011-01-01T00:00:00" restrictedStatus="open"><Latitude>40.3368</Latitude><Longitude>29.4728</Longitude><Elevation>910</Elevation><Site><Name>Iznik-BURSA</Name></Site><CreationDate>2011-01-01T00:00:00</CreationDate></Station><Station code="KAMT" startDate="2011-11-22T00:00:00" restrictedStatus="open"><Latitude>39.369178</Latitude><Longitude>33.712442</Longitude><Elevation>1120</Elevation><Site><Name>Kaman-KIRSEHIR</Name></Site><CreationDate>2011-11-22T00:00:00</CreationDate></Station><Station code="KARA" startDate="2005-08-28T00:00:00" restrictedStatus="open"><Latitude>37.2607</Latitude><Longitude>35.0547</Longitude><Elevation>366</Elevation><Site><Name>Karaisali-MERSIN</Name></Site><CreationDate>2005-08-28T00:00:00</CreationDate></Station><Station code="KARO" startDate="2012-11-28T00:00:00" restrictedStatus="open"><Latitude>39.3089</Latitude><Longitude>41.0493</Longitude><Elevation>1820</Elevation><Site><Name>Karliova-BINGOL</Name></Site><CreationDate>2012-11-28T00:00:00</CreationDate></Station><Station code="KARS" startDate="2010-10-13T00:00:00" restrictedStatus="open"><Latitude>40.6152</Latitude><Longitude>43.0937</Longitude><Elevation>1747</Elevation><Site><Name>KARS</Name></Site><CreationDate>2010-10-13T00:00:00</CreationDate></Station><Station code="KAVV" startDate="2010-01-01T00:00:00" restrictedStatus="open"><Latitude>41.0638</Latitude><Longitude>29.06</Longitude><Elevation>139</Elevation><Site><Name>Kav Binasi-Kandilli-ISTANBUL</Name></Site><CreationDate>2010-01-01T00:00:00</CreationDate></Station><Station code="KCTX" startDate="2008-07-11T00:00:00" restrictedStatus="open"><Latitude>40.2627</Latitude><Longitude>28.3353</Longitude><Elevation>445</Elevation><Site><Name>Karacabey-BURSA</Name></Site><CreationDate>2008-07-11T00:00:00</CreationDate></Station><Station code="KDZE" startDate="2006-06-30T00:00:00" restrictedStatus="open"><Latitude>41.3132</Latitude><Longitude>31.443</Longitude><Elevation>410</Elevation><Site><Name>Kdz.Ereglisi-ZONGULDAK</Name></Site><CreationDate>2006-06-30T00:00:00</CreationDate></Station><Station code="KEMT" startDate="2011-01-01T00:00:00" restrictedStatus="open"><Latitude>36.6037</Latitude><Longitude>30.5559</Longitude><Elevation>10</Elevation><Site><Name>Kemer-ANTALYA</Name></Site><CreationDate>2011-01-01T00:00:00</CreationDate></Station><Station code="KHL" startDate="2011-01-01T00:00:00" restrictedStatus="open"><Latitude>38.3232</Latitude><Longitude>29.5286</Longitude><Elevation>1003</Elevation><Site><Name>Karahalli-USAK</Name></Site><CreationDate>2011-01-01T00:00:00</CreationDate></Station><Station code="KHMN" startDate="2011-01-01T00:00:00" restrictedStatus="open"><Latitude>37.3916</Latitude><Longitude>37.1574</Longitude><Elevation>640</Elevation><Site><Name>KAHRAMANMARAS</Name></Site><CreationDate>2011-01-01T00:00:00</CreationDate></Station><Station code="KIYI" startDate="2011-01-01T00:00:00" restrictedStatus="open"><Latitude>41.4844</Latitude><Longitude>28.3</Longitude><Elevation>23</Elevation><Site><Name>Kiyikoy-ISTANBUL</Name></Site><CreationDate>2011-01-01T00:00:00</CreationDate></Station><Station code="KIZT" startDate="2011-11-24T00:00:00" restrictedStatus="open"><Latitude>38.880783</Latitude><Longitude>31.716333</Longitude><Elevation>1222</Elevation><Site><Name>Kizilcal-KONYA</Name></Site><CreationDate>2011-11-24T00:00:00</CreationDate></Station><Station code="KLYT" startDate="2006-05-18T00:00:00" restrictedStatus="open"><Latitude>41.253</Latitude><Longitude>29.042</Longitude><Elevation>30</Elevation><Site><Name>Kilyos-ISTANBUL</Name></Site><CreationDate>2006-05-18T00:00:00</CreationDate></Station><Station code="KMRS" startDate="2006-08-30T00:00:00" restrictedStatus="open"><Latitude>37.5053</Latitude><Longitude>36.9</Longitude><Elevation>590</Elevation><Site><Name>KAHRAMANMARAS</Name></Site><CreationDate>2006-08-30T00:00:00</CreationDate></Station><Station code="KONT" startDate="2006-07-20T00:00:00" restrictedStatus="open"><Latitude>37.9453</Latitude><Longitude>32.3605</Longitude><Elevation>1100</Elevation><Site><Name>KONYA</Name></Site><CreationDate>2006-07-20T00:00:00</CreationDate></Station><Station code="KOPR" startDate="2012-11-28T00:00:00" restrictedStatus="open"><Latitude>39.9917</Latitude><Longitude>41.8535</Longitude><Elevation>1675</Elevation><Site><Name>Koprukoy-ERZURUM</Name></Site><CreationDate>2012-11-28T00:00:00</CreationDate></Station><Station code="KOZK" startDate="2015-01-01T00:00:00" restrictedStatus="open"><Latitude>39.662334</Latitude><Longitude>34.8679</Longitude><Elevation>1134</Elevation><Site><Name>Kozakli-Nevsehir</Name></Site><CreationDate>2015-01-01T00:00:00</CreationDate></Station><Station code="KOZT" startDate="2007-11-22T00:00:00" restrictedStatus="open"><Latitude>37.4805</Latitude><Longitude>35.8268</Longitude><Elevation>381</Elevation><Site><Name>Kozan-ADANA</Name></Site><CreationDate>2007-11-22T00:00:00</CreationDate></Station><Station code="KRBG" startDate="2008-06-27T00:00:00" restrictedStatus="open"><Latitude>40.3932</Latitude><Longitude>27.2977</Longitude><Elevation>79</Elevation><Site><Name>Karabiga-CANAKKALE</Name></Site><CreationDate>2008-06-27T00:00:00</CreationDate></Station><Station code="KRBN" startDate="2011-01-01T00:00:00" restrictedStatus="open"><Latitude>38.5936</Latitude><Longitude>26.5537</Longitude><Elevation>135</Elevation><Site><Name>Karaburun-IZMIR</Name></Site><CreationDate>2011-01-01T00:00:00</CreationDate></Station><Station code="KRMN" startDate="2014-01-01T00:00:00" restrictedStatus="open"><Latitude>37.174</Latitude><Longitude>33.2636</Longitude><Elevation>1068</Elevation><Site><Name>Karaman</Name></Site><CreationDate>2014-01-01T00:00:00</CreationDate></Station><Station code="KRTD" startDate="2011-01-01T00:00:00" restrictedStatus="open"><Latitude>36.5934</Latitude><Longitude>35.4157</Longitude><Elevation>47</Elevation><Site><Name>Karatas-ADANA</Name></Site><CreationDate>2011-01-01T00:00:00</CreationDate></Station><Station code="KRTS" startDate="2005-08-25T00:00:00" restrictedStatus="open"><Latitude>36.573</Latitude><Longitude>35.375</Longitude><Elevation>53</Elevation><Site><Name>Karatas-MERSIN</Name></Site><CreationDate>2005-08-25T00:00:00</CreationDate></Station><Station code="KTUT" startDate="2006-08-17T00:00:00" restrictedStatus="open"><Latitude>40.987</Latitude><Longitude>39.7667</Longitude><Elevation>171</Elevation><Site><Name>Karadeniz Teknik Universitesi-TRABZON</Name></Site><CreationDate>2006-08-17T00:00:00</CreationDate></Station><Station code="KULA" startDate="2007-02-20T00:00:00" restrictedStatus="open"><Latitude>38.5145</Latitude><Longitude>28.6607</Longitude><Elevation>915</Elevation><Site><Name>Kula-MANISA</Name></Site><CreationDate>2007-02-20T00:00:00</CreationDate></Station><Station code="KULU" startDate="2009-06-01T00:00:00" restrictedStatus="open"><Latitude>39.0343</Latitude><Longitude>33.0023</Longitude><Elevation>1120</Elevation><Site><Name>Kulu-KONYA</Name></Site><CreationDate>2009-06-01T00:00:00</CreationDate></Station><Station code="KURC" startDate="2011-12-15T00:00:00" restrictedStatus="open"><Latitude>41.8456</Latitude><Longitude>32.743</Longitude><Elevation>143</Elevation><Site><Name>Kurucasile-ZONGULDAK</Name></Site><CreationDate>2011-12-15T00:00:00</CreationDate></Station><Station code="KUSD" startDate="2011-01-01T00:00:00" restrictedStatus="open"><Latitude>37.86</Latitude><Longitude>27.2815</Longitude><Elevation>323</Elevation><Site><Name>Kusadasi-AYDIN</Name></Site><CreationDate>2011-01-01T00:00:00</CreationDate></Station><Station code="KVT" startDate="2006-08-15T00:00:00" restrictedStatus="open"><Latitude>41.0807</Latitude><Longitude>36.0463</Longitude><Elevation>649</Elevation><Site><Name>Kavak-SAMSUN</Name></Site><CreationDate>2006-08-15T00:00:00</CreationDate></Station><Station code="LADK" startDate="2007-06-19T00:00:00" restrictedStatus="open"><Latitude>38.2</Latitude><Longitude>32.3648</Longitude><Elevation>1168</Elevation><Site><Name>Ladik-KONYA</Name></Site><CreationDate>2007-06-19T00:00:00</CreationDate></Station><Station code="LAP" startDate="2007-12-27T00:00:00" restrictedStatus="open"><Latitude>40.3703</Latitude><Longitude>26.7593</Longitude><Elevation>230</Elevation><Site><Name>Lapseki-CANAKKALE</Name></Site><CreationDate>2007-12-27T00:00:00</CreationDate></Station><Station code="LEF" startDate="2007-03-20T00:00:00" restrictedStatus="open"><Latitude>35.1118</Latitude><Longitude>32.8433</Longitude><Elevation>152</Elevation><Site><Name>Lefke-KIBRIS</Name></Site><CreationDate>2007-03-20T00:00:00</CreationDate></Station><Station code="LFK" startDate="2007-03-22T00:00:00" restrictedStatus="open"><Latitude>35.2832</Latitude><Longitude>33.5337</Longitude><Elevation>690</Elevation><Site><Name>Alevkaya-KIBRIS</Name></Site><CreationDate>2007-03-22T00:00:00</CreationDate></Station><Station code="LOD" startDate="2007-02-02T00:00:00" restrictedStatus="open"><Latitude>39.8893</Latitude><Longitude>32.764</Longitude><Elevation>902</Elevation><Site><Name>Lodumlu-ANKARA</Name></Site><CreationDate>2007-02-02T00:00:00</CreationDate></Station><Station code="MALT" startDate="2011-01-01T00:00:00" restrictedStatus="open"><Latitude>38.3134</Latitude><Longitude>38.4273</Longitude><Elevation>1112</Elevation><Site><Name>Malatya</Name></Site><CreationDate>2011-01-01T00:00:00</CreationDate></Station><Station code="MASR" startDate="2011-01-01T00:00:00" restrictedStatus="open"><Latitude>41.7596</Latitude><Longitude>32.4658</Longitude><Elevation>325</Elevation><Site><Name>Amasra-BARTIN</Name></Site><CreationDate>2011-01-01T00:00:00</CreationDate></Station><Station code="MAZI" startDate="2009-06-29T00:00:00" restrictedStatus="open"><Latitude>37.4593</Latitude><Longitude>40.4465</Longitude><Elevation>1204</Elevation><Site><Name>Mazidagi-MARDIN</Name></Site><CreationDate>2009-06-29T00:00:00</CreationDate></Station><Station code="MDNY" startDate="2008-07-09T00:00:00" restrictedStatus="open"><Latitude>40.371</Latitude><Longitude>28.8847</Longitude><Elevation>116</Elevation><Site><Name>Mudanya-BURSA</Name></Site><CreationDate>2008-07-09T00:00:00</CreationDate></Station><Station code="MDUB" startDate="2008-05-22T00:00:00" restrictedStatus="open"><Latitude>40.4712</Latitude><Longitude>31.1977</Longitude><Elevation>1109</Elevation><Site><Name>Mudurnu-BOLU</Name></Site><CreationDate>2008-05-22T00:00:00</CreationDate></Station><Station code="MERS" startDate="2011-02-18T00:00:00" restrictedStatus="open"><Latitude>36.8678</Latitude><Longitude>34.522</Longitude><Elevation>750</Elevation><Site><Name>MERSIN</Name></Site><CreationDate>2011-02-18T00:00:00</CreationDate></Station><Station code="MLAZ" startDate="2012-11-26T00:00:00" restrictedStatus="open"><Latitude>39.141</Latitude><Longitude>42.5496</Longitude><Elevation>1581</Elevation><Site><Name>Malazgirt-MUS</Name></Site><CreationDate>2012-11-26T00:00:00</CreationDate></Station><Station code="MLSB" startDate="2003-07-01T00:00:00" restrictedStatus="open"><Latitude>37.2953</Latitude><Longitude>27.7767</Longitude><Elevation>500</Elevation><Site><Name>Milas-MUGLA</Name></Site><CreationDate>2003-07-01T00:00:00</CreationDate></Station><Station code="MNVG" startDate="2011-01-01T00:00:00" restrictedStatus="open"><Latitude>36.7935</Latitude><Longitude>31.4161</Longitude><Elevation>24</Elevation><Site><Name>Manavgat-ANTALYA</Name></Site><CreationDate>2011-01-01T00:00:00</CreationDate></Station><Station code="MRMT" startDate="2008-10-09T00:00:00" restrictedStatus="open"><Latitude>40.609</Latitude><Longitude>27.5832</Longitude><Elevation>213</Elevation><Site><Name>Marmara Adasi-BALIKESIR</Name></Site><CreationDate>2008-10-09T00:00:00</CreationDate></Station><Station code="MRSB" startDate="2011-01-01T00:00:00" restrictedStatus="open"><Latitude>36.7161</Latitude><Longitude>28.1969</Longitude><Elevation>402</Elevation><Site><Name>Marmaris-MUGLA</Name></Site><CreationDate>2011-01-01T00:00:00</CreationDate></Station><Station code="NIG" startDate="2011-01-01T00:00:00" restrictedStatus="open"><Latitude>38.108</Latitude><Longitude>34.6142</Longitude><Elevation>2270</Elevation><Site><Name>NIGDE</Name></Site><CreationDate>2011-01-01T00:00:00</CreationDate></Station><Station code="ORLT" startDate="2011-01-01T00:00:00" restrictedStatus="open"><Latitude>40.0452</Latitude><Longitude>28.8914</Longitude><Elevation>650</Elevation><Site><Name>Orhaneli-BURSA</Name></Site><CreationDate>2011-01-01T00:00:00</CreationDate></Station><Station code="OSMT" startDate="2011-01-01T00:00:00" restrictedStatus="open"><Latitude>40.601</Latitude><Longitude>29.7</Longitude><Elevation>798</Elevation><Site><Name>KOAC-OSMT</Name></Site><CreationDate>2011-01-01T00:00:00</CreationDate></Station><Station code="PHSR" startDate="2009-07-09T00:00:00" restrictedStatus="open"><Latitude>41.6308</Latitude><Longitude>27.5238</Longitude><Elevation>263</Elevation><Site><Name>Pinarhisar-KIRKLARELI</Name></Site><CreationDate>2009-07-09T00:00:00</CreationDate></Station><Station code="PRSB" startDate="2011-01-01T00:00:00" restrictedStatus="open"><Latitude>41.1044</Latitude><Longitude>37.7753</Longitude><Elevation>100</Elevation><Site><Name>Persembe-ORDU</Name></Site><CreationDate>2011-01-01T00:00:00</CreationDate></Station><Station code="PTK" startDate="2006-08-10T00:00:00" restrictedStatus="open"><Latitude>38.8923</Latitude><Longitude>39.3923</Longitude><Elevation>1835</Elevation><Site><Name>Pertek-TUNCELI</Name></Site><CreationDate>2006-08-10T00:00:00</CreationDate></Station><Station code="RKY" startDate="2006-05-16T00:00:00" restrictedStatus="open"><Latitude>40.6875</Latitude><Longitude>27.1777</Longitude><Elevation>687</Elevation><Site><Name>Sarkoy-TEKIRDAG</Name></Site><CreationDate>2006-05-16T00:00:00</CreationDate></Station><Station code="RSDY" startDate="2007-06-15T00:00:00" restrictedStatus="open"><Latitude>40.3972</Latitude><Longitude>37.3273</Longitude><Elevation>550</Elevation><Site><Name>Resadiye-TOKAT</Name></Site><CreationDate>2007-06-15T00:00:00</CreationDate></Station><Station code="SAFT" startDate="2011-01-01T00:00:00" restrictedStatus="open"><Latitude>41.2398</Latitude><Longitude>32.6872</Longitude><Elevation>406</Elevation><Site><Name>Safranbolu-KARABUK</Name></Site><CreationDate>2011-01-01T00:00:00</CreationDate></Station><Station code="SARI" startDate="2010-08-17T00:00:00" restrictedStatus="open"><Latitude>38.4072</Latitude><Longitude>36.4182</Longitude><Elevation>1673</Elevation><Site><Name>Sariz-KAYSERI</Name></Site><CreationDate>2010-08-17T00:00:00</CreationDate></Station><Station code="SAUV" startDate="2012-02-25T00:00:00" restrictedStatus="open"><Latitude>40.7402</Latitude><Longitude>30.3272</Longitude><Elevation>170</Elevation><Site><Name>Sakarya Universitesi</Name></Site><CreationDate>2012-02-25T00:00:00</CreationDate></Station><Station code="SENK" startDate="2011-05-04T00:00:00" restrictedStatus="open"><Latitude>40.5615</Latitude><Longitude>42.3507</Longitude><Elevation>1939</Elevation><Site><Name>Senkaya-ERZURUM</Name></Site><CreationDate>2011-05-04T00:00:00</CreationDate></Station><Station code="SERE" startDate="2009-06-01T00:00:00" restrictedStatus="open"><Latitude>38.9463</Latitude><Longitude>33.564</Longitude><Elevation>1216</Elevation><Site><Name>Sereflikochisar-ANKARA</Name></Site><CreationDate>2009-06-01T00:00:00</CreationDate></Station><Station code="SEYD" startDate="2014-01-01T00:00:00" restrictedStatus="open"><Latitude>37.4057</Latitude><Longitude>31.838</Longitude><Elevation>1160</Elevation><Site><Name>Seydisehir-Konya</Name></Site><CreationDate>2014-01-01T00:00:00</CreationDate></Station><Station code="SHAP" startDate="2011-01-01T00:00:00" restrictedStatus="open"><Latitude>39.0231</Latitude><Longitude>29.222</Longitude><Elevation>1050</Elevation><Site><Name>Saphane-KUTAHYA</Name></Site><CreationDate>2011-01-01T00:00:00</CreationDate></Station><Station code="SHUT" startDate="2006-11-02T00:00:00" restrictedStatus="open"><Latitude>38.553</Latitude><Longitude>30.551</Longitude><Elevation>1215</Elevation><Site><Name>Suhut-AFYON</Name></Site><CreationDate>2006-11-02T00:00:00</CreationDate></Station><Station code="SILT" startDate="2007-08-01T00:00:00" restrictedStatus="open"><Latitude>41.153</Latitude><Longitude>29.643</Longitude><Elevation>100</Elevation><Site><Name>Sile-ISTANBUL</Name></Site><CreationDate>2007-08-01T00:00:00</CreationDate></Station><Station code="SIMA" startDate="2011-07-26T00:00:00" restrictedStatus="open"><Latitude>39.0833</Latitude><Longitude>28.9825</Longitude><Elevation>984</Elevation><Site><Name>Simav-KUTAHYA</Name></Site><CreationDate>2011-07-26T00:00:00</CreationDate></Station><Station code="SINP" startDate="2011-01-01T00:00:00" restrictedStatus="open"><Latitude>41.9817</Latitude><Longitude>35.0966</Longitude><Elevation>100</Elevation><Site><Name>SINOP</Name></Site><CreationDate>2011-01-01T00:00:00</CreationDate></Station><Station code="SIRT" startDate="2006-09-21T00:00:00" restrictedStatus="open"><Latitude>37.501</Latitude><Longitude>42.4392</Longitude><Elevation>1038</Elevation><Site><Name>SIRNAK</Name></Site><CreationDate>2006-09-21T00:00:00</CreationDate></Station><Station code="SLFK" startDate="2011-01-01T00:00:00" restrictedStatus="open"><Latitude>36.3926</Latitude><Longitude>33.9465</Longitude><Elevation>54</Elevation><Site><Name>Silifke-MERSIN</Name></Site><CreationDate>2011-01-01T00:00:00</CreationDate></Station><Station code="SLVT" startDate="2007-08-01T00:00:00" restrictedStatus="open"><Latitude>41.23</Latitude><Longitude>28.21</Longitude><Elevation>180</Elevation><Site><Name>Silivri-ISTANBUL</Name></Site><CreationDate>2007-08-01T00:00:00</CreationDate></Station><Station code="SMAA" startDate="2011-01-01T00:00:00" restrictedStatus="open"><Latitude>39.1005</Latitude><Longitude>28.9805</Longitude><Elevation>804</Elevation><Site><Name>Simav-KUTAHYA</Name></Site><CreationDate>2011-01-01T00:00:00</CreationDate></Station><Station code="SNOP" startDate="2010-08-13T00:00:00" restrictedStatus="open"><Latitude>42.0195</Latitude><Longitude>35.2068</Longitude><Elevation>180</Elevation><Site><Name>SINOP</Name></Site><CreationDate>2010-08-13T00:00:00</CreationDate></Station><Station code="SPNC" startDate="2008-06-27T00:00:00" restrictedStatus="open"><Latitude>40.686</Latitude><Longitude>30.3083</Longitude><Elevation>190</Elevation><Site><Name>Sapanca-SAKARYA</Name></Site><CreationDate>2008-06-27T00:00:00</CreationDate></Station><Station code="SULT" startDate="2008-01-04T00:00:00" restrictedStatus="open"><Latitude>38.1988</Latitude><Longitude>33.5157</Longitude><Elevation>982</Elevation><Site><Name>Sultanhani-KONYA</Name></Site><CreationDate>2008-01-04T00:00:00</CreationDate></Station><Station code="SVAN" startDate="2007-04-27T00:00:00" restrictedStatus="open"><Latitude>38.1512</Latitude><Longitude>41.1985</Longitude><Elevation>650</Elevation><Site><Name>Silvan-DIYARBAKIR</Name></Site><CreationDate>2007-04-27T00:00:00</CreationDate></Station><Station code="SVRC" startDate="2007-04-27T00:00:00" restrictedStatus="open"><Latitude>38.3775</Latitude><Longitude>39.306</Longitude><Elevation>1680</Elevation><Site><Name>Sivrice-ELAZIG</Name></Site><CreationDate>2007-04-27T00:00:00</CreationDate></Station><Station code="SVRH" startDate="2007-12-27T00:00:00" restrictedStatus="open"><Latitude>39.447</Latitude><Longitude>31.523</Longitude><Elevation>1000</Elevation><Site><Name>Sivrihisar-ESKISEHIR</Name></Site><CreationDate>2007-12-27T00:00:00</CreationDate></Station><Station code="SVSK" startDate="2007-08-01T00:00:00" restrictedStatus="open"><Latitude>39.9175</Latitude><Longitude>36.9925</Longitude><Elevation>1630</Elevation><Site><Name>SIVAS</Name></Site><CreationDate>2007-08-01T00:00:00</CreationDate></Station><Station code="TAHT" startDate="2009-10-19T00:00:00" restrictedStatus="open"><Latitude>36.3755</Latitude><Longitude>36.1855</Longitude><Elevation>278</Elevation><Site><Name>Tahtakoy-HATAY</Name></Site><CreationDate>2009-10-19T00:00:00</CreationDate></Station><Station code="TASB" startDate="2011-10-25T00:00:00" restrictedStatus="open"><Latitude>39.98386</Latitude><Longitude>44.23841</Longitude><Elevation>849</Elevation><Site><Name>Tasburun-IGDIR</Name></Site><CreationDate>2011-10-25T00:00:00</CreationDate></Station><Station code="TKR" startDate="2011-01-01T00:00:00" restrictedStatus="open"><Latitude>40.9902</Latitude><Longitude>27.5357</Longitude><Elevation>140</Elevation><Site><Name>TEKIRDAG</Name></Site><CreationDate>2011-01-01T00:00:00</CreationDate></Station><Station code="TOKT" startDate="2012-01-10T00:00:00" restrictedStatus="open"><Latitude>40.3173</Latitude><Longitude>36.5445</Longitude><Elevation>726</Elevation><Site><Name>TOKAT</Name></Site><CreationDate>2012-01-10T00:00:00</CreationDate></Station><Station code="TOS" startDate="2011-01-01T00:00:00" restrictedStatus="open"><Latitude>41.0362</Latitude><Longitude>34.0225</Longitude><Elevation>1046</Elevation><Site><Name>Tosya-KASTAMONU</Name></Site><CreationDate>2011-01-01T00:00:00</CreationDate></Station><Station code="TVSB" startDate="2009-02-12T00:00:00" restrictedStatus="open"><Latitude>39.4497</Latitude><Longitude>29.4615</Longitude><Elevation>1090</Elevation><Site><Name>Tavsanli-KUTAHYA</Name></Site><CreationDate>2009-02-12T00:00:00</CreationDate></Station><Station code="UKOP" startDate="2013-01-01T00:00:00" restrictedStatus="open"><Latitude>41.1288</Latitude><Longitude>26.6322</Longitude><Elevation>66</Elevation><Site><Name>Uzunkopru-EDIRNE</Name></Site><CreationDate>2013-01-01T00:00:00</CreationDate></Station><Station code="URFA" startDate="2004-12-02T00:00:00" restrictedStatus="open"><Latitude>37.441</Latitude><Longitude>38.8213</Longitude><Elevation>938</Elevation><Site><Name>URFA</Name></Site><CreationDate>2004-12-02T00:00:00</CreationDate></Station><Station code="VANB" startDate="2000-08-10T00:00:00" restrictedStatus="open"><Latitude>38.509</Latitude><Longitude>43.4058</Longitude><Elevation>1227</Elevation><Site><Name>VAN</Name></Site><CreationDate>2000-08-10T00:00:00</CreationDate></Station><Station code="VRTB" startDate="2008-11-20T00:00:00" restrictedStatus="open"><Latitude>39.1603</Latitude><Longitude>41.4558</Longitude><Elevation>1498</Elevation><Site><Name>Varto-MUS</Name></Site><CreationDate>2008-11-20T00:00:00</CreationDate></Station><Station code="YAYX" startDate="2009-06-01T00:00:00" restrictedStatus="open"><Latitude>38.9387</Latitude><Longitude>33.8115</Longitude><Elevation>1142</Elevation><Site><Name>Yayla-Sariyahsi-AKSARAY</Name></Site><CreationDate>2009-06-01T00:00:00</CreationDate></Station><Station code="YEDI" startDate="2011-05-03T00:00:00" restrictedStatus="open"><Latitude>39.4377</Latitude><Longitude>40.5443</Longitude><Elevation>1557</Elevation><Site><Name>Yedisu-BINGOL</Name></Site><CreationDate>2011-05-03T00:00:00</CreationDate></Station><Station code="YER" startDate="2006-07-06T00:00:00" restrictedStatus="open"><Latitude>37.1362</Latitude><Longitude>28.2858</Longitude><Elevation>729</Elevation><Site><Name>Yerkesik-MUGLA</Name></Site><CreationDate>2006-07-06T00:00:00</CreationDate></Station><Station code="YESY" startDate="2009-06-01T00:00:00" restrictedStatus="open"><Latitude>37.7825</Latitude><Longitude>33.7432</Longitude><Elevation>1206</Elevation><Site><Name>Yesilyayla-Karapinar-KONYA</Name></Site><CreationDate>2009-06-01T00:00:00</CreationDate></Station><Station code="YKAV" startDate="2011-01-01T00:00:00" restrictedStatus="open"><Latitude>37.1246</Latitude><Longitude>27.2801</Longitude><Elevation>115</Elevation><Site><Name>Yalikavak-MUGLA</Name></Site><CreationDate>2011-01-01T00:00:00</CreationDate></Station><Station code="YLV" startDate="2011-09-26T00:00:00" restrictedStatus="open"><Latitude>40.5658</Latitude><Longitude>29.3708</Longitude><Elevation>879</Elevation><Site><Name>YALOVA</Name></Site><CreationDate>2011-09-26T00:00:00</CreationDate></Station><Station code="YOZ" startDate="2011-12-13T00:00:00" restrictedStatus="open"><Latitude>39.6376</Latitude><Longitude>35.3152</Longitude><Elevation>1422</Elevation><Site><Name>YOZGAT</Name></Site><CreationDate>2011-12-13T00:00:00</CreationDate></Station><Station code="YUNK" startDate="2011-01-01T00:00:00" restrictedStatus="open"><Latitude>38.806</Latitude><Longitude>31.7626</Longitude><Elevation>5</Elevation><Site><Name>Yunak-KONYA</Name></Site><CreationDate>2011-01-01T00:00:00</CreationDate></Station><Station code="YUVA" startDate="2013-01-01T00:00:00" restrictedStatus="open"><Latitude>40.391</Latitude><Longitude>31.6872</Longitude><Elevation>1164</Elevation><Site><Name>Yuva-Kibriscik-BOLU</Name></Site><CreationDate>2013-01-01T00:00:00</CreationDate></Station><Station code="BOTS" startDate="2008-01-01T00:00:00" restrictedStatus="open"><Latitude>40.9902</Latitude><Longitude>27.981</Longitude><Elevation>24</Elevation><Site><Name>Botas-ISTANBUL-Cinnet</Name></Site><CreationDate>2008-01-01T00:00:00</CreationDate></Station><Station code="CINR" startDate="2008-01-01T00:00:00" restrictedStatus="open"><Latitude>40.6133</Latitude><Longitude>29.075</Longitude><Elevation>70</Elevation><Site><Name>Cinarcik-Cinnet</Name></Site><CreationDate>2008-01-01T00:00:00</CreationDate></Station><Station code="HYRS" startDate="2006-01-01T00:00:00" restrictedStatus="open"><Latitude>40.79</Latitude><Longitude>29.2617</Longitude><Elevation>5</Elevation><Site><Name>Hayirsizada-Marmara Denizi</Name></Site><CreationDate>2006-01-01T00:00:00</CreationDate></Station><Station code="MAR1" startDate="2008-01-01T00:00:00" restrictedStatus="open"><Latitude>40.6533</Latitude><Longitude>27.6633</Longitude><Elevation>30</Elevation><Site><Name>Marmaraadasi-Cinnet</Name></Site><CreationDate>2008-01-01T00:00:00</CreationDate></Station><Station code="MIAN" startDate="2008-01-01T00:00:00" restrictedStatus="open"><Latitude>40.8183</Latitude><Longitude>29.1117</Longitude><Elevation>5</Elevation><Site><Name>Miandaros-Marmara Denizi-Cinnet</Name></Site><CreationDate>2008-01-01T00:00:00</CreationDate></Station><Station code="SEDF" startDate="2008-01-01T00:00:00" restrictedStatus="open"><Latitude>40.8483</Latitude><Longitude>29.1433</Longitude><Elevation>5</Elevation><Site><Name>Sedefadasi-Cinnet</Name></Site><CreationDate>2008-01-01T00:00:00</CreationDate></Station><Station code="YALV" startDate="2008-01-01T00:00:00" restrictedStatus="open"><Latitude>40.66</Latitude><Longitude>29.465</Longitude><Elevation>310</Elevation><Site><Name>Yalova-Cinnet</Name></Site><CreationDate>2008-01-01T00:00:00</CreationDate></Station><Station code="GEML" startDate="2020-06-10T00:00:00" restrictedStatus="open"><Latitude>40.4646</Latitude><Longitude>29.2116</Longitude><Elevation>222</Elevation><Site><Name>GEMLIK</Name></Site><CreationDate>2020-06-10T00:00:00</CreationDate></Station><Station code="ALT" startDate="2020-02-25T00:00:00" restrictedStatus="open"><Latitude>39.0552</Latitude><Longitude>30.1103</Longitude><Elevation>1060</Elevation><Site><Name>ALTINTAS-KUTAHYA</Name></Site><CreationDate>2020-02-25T00:00:00</CreationDate></Station><Station code="BOTS" startDate="2011-01-01T00:00:00" restrictedStatus="open"><Latitude>40.9902</Latitude><Longitude>27.981</Longitude><Elevation>30</Elevation><Site><Name>Botas-ISTANBUL</Name></Site><CreationDate>2011-01-01T00:00:00</CreationDate></Station><Station code="BRGA" startDate="2011-01-01T00:00:00" restrictedStatus="open"><Latitude>40.8799</Latitude><Longitude>29.0688</Longitude><Elevation>7</Elevation><Site><Name>Burgazada-ISTANBUL</Name></Site><CreationDate>2011-01-01T00:00:00</CreationDate></Station><Station code="BUYA" startDate="2011-01-01T00:00:00" restrictedStatus="open"><Latitude>40.8746</Latitude><Longitude>29.1295</Longitude><Elevation>7</Elevation><Site><Name>Buyukada-ISTANBUL</Name></Site><CreationDate>2011-01-01T00:00:00</CreationDate></Station><Station code="HVHR" startDate="2011-01-01T00:00:00" restrictedStatus="open"><Latitude>40.9908</Latitude><Longitude>28.6678</Longitude><Elevation>22</Elevation><Site><Name>Havaharbokulu-ISTANBUL</Name></Site><CreationDate>2011-01-01T00:00:00</CreationDate></Station><Station code="HYBA" startDate="2011-01-01T00:00:00" restrictedStatus="open"><Latitude>40.878</Latitude><Longitude>29.0941</Longitude><Elevation>5</Elevation><Site><Name>Heybeliada-ISTANBUL</Name></Site><CreationDate>2011-01-01T00:00:00</CreationDate></Station><Station code="LAFA" startDate="2011-01-01T00:00:00" restrictedStatus="open"><Latitude>40.7598</Latitude><Longitude>29.3554</Longitude><Elevation>38</Elevation><Site><Name>Lafarge-ISTANBUL</Name></Site><CreationDate>2011-01-01T00:00:00</CreationDate></Station><Station code="SINB" startDate="2011-01-01T00:00:00" restrictedStatus="open"><Latitude>40.9998</Latitude><Longitude>28.5392</Longitude><Elevation>59</Elevation><Site><Name>Sinanoba-ISTANBUL</Name></Site><CreationDate>2011-01-01T00:00:00</CreationDate></Station><Station code="TUZL" startDate="2011-01-01T00:00:00" restrictedStatus="open"><Latitude>40.8128</Latitude><Longitude>29.2657</Longitude><Elevation>12</Elevation><Site><Name>Tuzla-ISTANBUL</Name></Site><CreationDate>2011-01-01T00:00:00</CreationDate></Station><Station code="YKBL" startDate="2011-08-08T00:00:00" restrictedStatus="open"><Latitude>40.9908</Latitude><Longitude>28.6675</Longitude><Elevation>139</Elevation><Site><Name>Yakublu-Istanbul</Name></Site><CreationDate>2011-08-08T00:00:00</CreationDate></Station><Station code="YLVH" startDate="2011-01-01T00:00:00" restrictedStatus="open"><Latitude>40.6953</Latitude><Longitude>29.3703</Longitude><Elevation>5</Elevation><Site><Name>KOAC-YALOVA</Name></Site><CreationDate>2011-01-01T00:00:00</CreationDate></Station><Station code="KIZO" startDate="2013-12-06T00:00:00" restrictedStatus="open"><Latitude>40.900533</Latitude><Longitude>35.933468</Longitude><Elevation>940</Elevation><Site><Name>Kizoglu-SAMSUN</Name></Site><CreationDate>2013-12-06T00:00:00</CreationDate></Station><Station code="KMON" startDate="2011-01-01T00:00:00" restrictedStatus="open"><Latitude>41.3738</Latitude><Longitude>33.7838</Longitude><Elevation>936</Elevation><Site><Name>KASTAMONU</Name></Site><CreationDate>2011-01-01T00:00:00</CreationDate></Station><Station code="YARM" startDate="2013-01-01T00:00:00" restrictedStatus="open"><Latitude>40.9231</Latitude><Longitude>35.8266</Longitude><Elevation>930</Elevation><Site><Name>Yarimca Ladik SAMSUN</Name></Site><CreationDate>2013-01-01T00:00:00</CreationDate></Station><Station code="GORD" startDate="2018-04-30T00:00:00" restrictedStatus="open"><Latitude>38.9088</Latitude><Longitude>28.1769</Longitude><Elevation>744</Elevation><Site><Name>Gordes MANISA</Name></Site><CreationDate>2018-04-30T00:00:00</CreationDate></Station><Station code="NAZL" startDate="2018-04-30T00:00:00" restrictedStatus="open"><Latitude>37.9641</Latitude><Longitude>28.2922</Longitude><Elevation>510</Elevation><Site><Name>Nazilli AYDIN</Name></Site><CreationDate>2018-04-30T00:00:00</CreationDate></Station><Station code="ODEM" startDate="2018-04-30T00:00:00" restrictedStatus="open"><Latitude>38.2762</Latitude><Longitude>28.0747</Longitude><Elevation>797</Elevation><Site><Name>Odemis IZMIR</Name></Site><CreationDate>2018-04-30T00:00:00</CreationDate></Station><Station code="SOMA" startDate="2018-04-30T00:00:00" restrictedStatus="open"><Latitude>39.1564</Latitude><Longitude>27.5341</Longitude><Elevation>243</Elevation><Site><Name>Soma MANISA</Name></Site><CreationDate>2018-04-30T00:00:00</CreationDate></Station><Station code="SUSR" startDate="2018-04-30T00:00:00" restrictedStatus="open"><Latitude>39.9627</Latitude><Longitude>28.0835</Longitude><Elevation>359</Elevation><Site><Name>Susurluk BALIKESIR</Name></Site><CreationDate>2018-04-30T00:00:00</CreationDate></Station><Station code="BLVD" startDate="2019-07-09T00:00:00" restrictedStatus="open"><Latitude>38.7946</Latitude><Longitude>31.095</Longitude><Elevation>1220</Elevation><Site><Name>Bolvadin</Name></Site><CreationDate>2019-07-09T00:00:00</CreationDate></Station><Station code="SDAG" startDate="2019-07-09T00:00:00" restrictedStatus="open"><Latitude>38.4396</Latitude><Longitude>30.9175</Longitude><Elevation>1140</Elevation><Site><Name>Sultandagi</Name></Site><CreationDate>2019-07-09T00:00:00</CreationDate></Station><Station code="GAZK" startDate="2019-12-23T00:00:00" restrictedStatus="open"><Latitude>40.747895</Latitude><Longitude>27.327514</Longitude><Elevation>30</Elevation><Site><Name>GAZIKOY_SARKOY_TEKIRDAG</Name></Site><CreationDate>2019-12-23T00:00:00</CreationDate></Station><Station code="RUZG" startDate="2019-12-19T00:00:00" restrictedStatus="open"><Latitude>40.724281</Latitude><Longitude>31.793603</Longitude><Elevation>942</Elevation><Site><Name>KOLKOY_MERKEZ_BOLU</Name></Site><CreationDate>2019-12-19T00:00:00</CreationDate></Station><Station code="UVEZ" startDate="2019-12-18T00:00:00" restrictedStatus="open"><Latitude>40.904077</Latitude><Longitude>30.903237</Longitude><Elevation>453</Elevation><Site><Name>UVEZLI_CUMAYERI_DUZCE</Name></Site><CreationDate>2019-12-18T00:00:00</CreationDate></Station><Station code="YALI" startDate="2019-12-20T00:00:00" restrictedStatus="open"><Latitude>40.767664</Latitude><Longitude>32.982256</Longitude><Elevation>1217</Elevation><Site><Name>YALIOZU_CERKES_BOLU</Name></Site><CreationDate>2019-12-20T00:00:00</CreationDate></Station><Station code="BIGA" startDate="2019-11-21T00:00:00" restrictedStatus="open"><Latitude>40.281348</Latitude><Longitude>27.150483</Longitude><Elevation>60</Elevation><Site><Name>KRDAE/COMU  Biga- Canakkale</Name></Site><CreationDate>2019-11-21T00:00:00</CreationDate></Station><Station code="EZNE" startDate="2018-04-11T00:00:00" restrictedStatus="open"><Latitude>39.756</Latitude><Longitude>26.3655</Longitude><Elevation>75</Elevation><Site><Name>KRDAE/COMU  Ezine- Canakkale</Name></Site><CreationDate>2018-04-11T00:00:00</CreationDate></Station><Station code="YENI" startDate="2018-04-18T00:00:00" restrictedStatus="open"><Latitude>39.9364</Latitude><Longitude>27.2416</Longitude><Elevation>278</Elevation><Site><Name>KRDAE/COMU  Yenice- Canakkale</Name></Site><CreationDate>2018-04-18T00:00:00</CreationDate></Station><Station code="CANM" startDate="2017-02-19T00:00:00" restrictedStatus="open"><Latitude>40.0114</Latitude><Longitude>27.0529</Longitude><Elevation>180</Elevation><Site><Name>KRDAE/COMU  Can- Canakkale</Name></Site><CreationDate>2017-02-19T00:00:00</CreationDate></Station><Station code="POLA" startDate="2019-07-01T00:00:00" restrictedStatus="open"><Latitude>39.7005</Latitude><Longitude>32.1677</Longitude><Elevation>1068</Elevation><Site><Name>Polatli</Name></Site><CreationDate>2019-07-01T00:00:00</CreationDate></Station><Station code="YAYO" startDate="2019-03-20T00:00:00" restrictedStatus="open"><Latitude>39.6113</Latitude><Longitude>27.0726</Longitude><Elevation>119</Elevation><Site><Name>Edremit</Name></Site><CreationDate>2019-03-20T00:00:00</CreationDate></Station><Station code="APMY" startDate="2016-05-31T00:00:00" restrictedStatus="open"><Latitude>37.47178</Latitude><Longitude>29.30178</Longitude><Elevation>930</Elevation><Site><Name>Acipayam-DENIZLI</Name></Site><CreationDate>2016-05-31T00:00:00</CreationDate></Station><Station code="AVCI" startDate="2011-01-01T00:00:00" restrictedStatus="open"><Latitude>40.9958</Latitude><Longitude>28.7225</Longitude><Elevation>90</Elevation><Site><Name>AVCILAR-ISTANBUL-UNI</Name></Site><CreationDate>2011-01-01T00:00:00</CreationDate></Station><Station code="TUNC" startDate="2020-09-25T00:00:00" restrictedStatus="open"><Latitude>39.6942</Latitude><Longitude>37.5388</Longitude><Elevation>1489</Elevation><Site><Name>Kiziloren-Sivas</Name></Site><CreationDate>2020-09-25T00:00:00</CreationDate></Station></Network><Network code="IJ" startDate="2014-04-01T00:00:00" restrictedStatus="open"><Description>Kandilli Observatory</Description><Station code="MAR2" startDate="2014-01-01T00:00:00" restrictedStatus="open"><Latitude>40.7172</Latitude><Longitude>27.3123</Longitude><Elevation>14</Elevation><Site><Name>Bati Marmara</Name></Site><CreationDate>2014-01-01T00:00:00</CreationDate></Station><Station code="MAR3" startDate="2014-01-01T00:00:00" restrictedStatus="open"><Latitude>40.7432</Latitude><Longitude>27.2945</Longitude><Elevation>243</Elevation><Site><Name>Bati Marmara</Name></Site><CreationDate>2014-01-01T00:00:00</CreationDate></Station><Station code="MAR4" startDate="2014-01-01T00:00:00" restrictedStatus="open"><Latitude>40.788</Latitude><Longitude>27.3007</Longitude><Elevation>905</Elevation><Site><Name>Bati Marmara</Name></Site><CreationDate>2014-01-01T00:00:00</CreationDate></Station><Station code="MAR5" startDate="2014-01-01T00:00:00" restrictedStatus="open"><Latitude>40.7954</Latitude><Longitude>27.366</Longitude><Elevation>104</Elevation><Site><Name>Bati Marmara</Name></Site><CreationDate>2014-01-01T00:00:00</CreationDate></Station><Station code="MAR6" startDate="2014-01-01T00:00:00" restrictedStatus="open"><Latitude>40.7041</Latitude><Longitude>27.2653</Longitude><Elevation>334</Elevation><Site><Name>Bati Marmara</Name></Site><CreationDate>2014-01-01T00:00:00</CreationDate></Station><Station code="MAR7" startDate="2014-01-01T00:00:00" restrictedStatus="open"><Latitude>40.7281</Latitude><Longitude>27.23533</Longitude><Elevation>342</Elevation><Site><Name>Bati Marmara</Name></Site><CreationDate>2014-01-01T00:00:00</CreationDate></Station><Station code="MAR8" startDate="2014-01-01T00:00:00" restrictedStatus="open"><Latitude>40.6121</Latitude><Longitude>27.5348</Longitude><Elevation>28</Elevation><Site><Name>Bati Marmara</Name></Site><CreationDate>2014-01-01T00:00:00</CreationDate></Station><Station code="MAR9" startDate="2014-01-01T00:00:00" restrictedStatus="open"><Latitude>40.6196</Latitude><Longitude>27.702003</Longitude><Elevation>99</Elevation><Site><Name>Bati Marmara</Name></Site><CreationDate>2014-01-01T00:00:00</CreationDate></Station><Station code="MAR1" startDate="2008-01-01T00:00:00" restrictedStatus="open"><Latitude>40.6533</Latitude><Longitude>27.6633</Longitude><Elevation>30</Elevation><Site><Name>Marmaraadasi-Cinnet</Name></Site><CreationDate>2008-01-01T00:00:00</CreationDate></Station></Network><Network code="TU" startDate="2006-07-15T00:00:00" restrictedStatus="open"><Description>National Seismic Network of Turkiye</Description><Station code="AKHS" startDate="2006-07-15T00:00:00" restrictedStatus="open"><Latitude>38.8788</Latitude><Longitude>27.8138</Longitude><Elevation>370</Elevation><Site><Name>Akhisar, Manisa</Name><Country> Manisa</Country></Site><CreationDate>2006-07-15T00:00:00</CreationDate></Station><Station code="BALY" startDate="2007-05-26T00:00:00" restrictedStatus="open"><Latitude>39.7403</Latitude><Longitude>27.6195</Longitude><Elevation>645</Elevation><Site><Name>Balya, Balikesir</Name><Country> Balikesir</Country></Site><CreationDate>2007-05-26T00:00:00</CreationDate></Station><Station code="BOZC" startDate="2006-07-16T00:00:00" restrictedStatus="open"><Latitude>39.8417</Latitude><Longitude>26.0528</Longitude><Elevation>202</Elevation><Site><Name>Bozcaada, Canakkale</Name><Country> Canakkale</Country></Site><CreationDate>2006-07-16T00:00:00</CreationDate></Station><Station code="DURS" startDate="2007-05-31T00:00:00" restrictedStatus="open"><Latitude>39.6011</Latitude><Longitude>28.4742</Longitude><Elevation>960</Elevation><Site><Name>Dursunbey, Balikesir</Name><Country> Balikesir</Country></Site><CreationDate>2007-05-31T00:00:00</CreationDate></Station><Station code="ELBA" startDate="2005-09-22T00:00:00" restrictedStatus="open"><Latitude>41.1469</Latitude><Longitude>28.4307</Longitude><Elevation>331</Elevation><Site><Name>Catalca, Istanbul</Name><Country> Istanbul</Country></Site><CreationDate>2005-09-22T00:00:00</CreationDate></Station><Station code="SART" startDate="2005-08-30T00:00:00" restrictedStatus="open"><Latitude>40.6889</Latitude><Longitude>27.18</Longitude><Elevation>800</Elevation><Site><Name>Sarkoy, Tekirdag</Name><Country> Tekirdag</Country></Site><CreationDate>2005-08-30T00:00:00</CreationDate></Station></Network><Network code="TL" startDate="2012-10-28T00:00:00" restrictedStatus="open"><Description>Kocaeli Marsite</Description><Station code="ALTN" startDate="1990-01-01T00:00:00" restrictedStatus="open"><Latitude>40.3578</Latitude><Longitude>28.9638</Longitude><Elevation>30</Elevation><Site><Name>ALTN</Name></Site><CreationDate>1990-01-01T00:00:00</CreationDate></Station><Station code="AVDN" startDate="1990-01-01T00:00:00" restrictedStatus="open"><Latitude>40.2933</Latitude><Longitude>29.1646</Longitude><Elevation>476</Elevation><Site><Name>AVDN</Name></Site><CreationDate>1990-01-01T00:00:00</CreationDate></Station><Station code="CFTB" startDate="1990-01-01T00:00:00" restrictedStatus="open"><Latitude>40.6642</Latitude><Longitude>29.2993</Longitude><Elevation>-98</Elevation><Site><Name>CFTB</Name></Site><CreationDate>1990-01-01T00:00:00</CreationDate></Station><Station code="DLMC" startDate="1990-01-01T00:00:00" restrictedStatus="open"><Latitude>40.5626</Latitude><Longitude>29.0039</Longitude><Elevation>728</Elevation><Site><Name>DLMC</Name></Site><CreationDate>1990-01-01T00:00:00</CreationDate></Station><Station code="ENGR" startDate="1990-01-01T00:00:00" restrictedStatus="open"><Latitude>40.3985</Latitude><Longitude>29.1387</Longitude><Elevation>75</Elevation><Site><Name>ENGR</Name></Site><CreationDate>1990-01-01T00:00:00</CreationDate></Station><Station code="ESNK" startDate="1990-01-01T00:00:00" restrictedStatus="open"><Latitude>40.628</Latitude><Longitude>28.9752</Longitude><Elevation>200</Elevation><Site><Name>ESNK</Name></Site><CreationDate>1990-01-01T00:00:00</CreationDate></Station><Station code="FSTK" startDate="1990-01-01T00:00:00" restrictedStatus="open"><Latitude>40.4975</Latitude><Longitude>28.8955</Longitude><Elevation>60</Elevation><Site><Name>FSTK</Name></Site><CreationDate>1990-01-01T00:00:00</CreationDate></Station><Station code="HYDR" startDate="1990-01-01T00:00:00" restrictedStatus="open"><Latitude>40.5132</Latitude><Longitude>29.127</Longitude><Elevation>390</Elevation><Site><Name>HYDR</Name></Site><CreationDate>1990-01-01T00:00:00</CreationDate></Station><Station code="ILYS" startDate="1990-01-01T00:00:00" restrictedStatus="open"><Latitude>40.6128</Latitude><Longitude>29.439</Longitude><Elevation>240</Elevation><Site><Name>ILYS</Name></Site><CreationDate>1990-01-01T00:00:00</CreationDate></Station><Station code="IPA2" startDate="1990-01-01T00:00:00" restrictedStatus="open"><Latitude>40.5465</Latitude><Longitude>28.843</Longitude><Elevation>85</Elevation><Site><Name>IPA2</Name></Site><CreationDate>1990-01-01T00:00:00</CreationDate></Station><Station code="KRSK" startDate="1990-01-01T00:00:00" restrictedStatus="open"><Latitude>40.405</Latitude><Longitude>29.2582</Longitude><Elevation>170</Elevation><Site><Name>KRSK</Name></Site><CreationDate>1990-01-01T00:00:00</CreationDate></Station><Station code="KYND" startDate="1990-01-01T00:00:00" restrictedStatus="open"><Latitude>40.537</Latitude><Longitude>28.7897</Longitude><Elevation>48</Elevation><Site><Name>KYND</Name></Site><CreationDate>1990-01-01T00:00:00</CreationDate></Station><Station code="KYSD" startDate="1990-01-01T00:00:00" restrictedStatus="open"><Latitude>40.9697</Latitude><Longitude>29.1643</Longitude><Elevation>429</Elevation><Site><Name>KYSD</Name></Site><CreationDate>1990-01-01T00:00:00</CreationDate></Station><Station code="SDSN" startDate="1990-01-01T00:00:00" restrictedStatus="open"><Latitude>40.5753</Latitude><Longitude>29.15</Longitude><Elevation>204</Elevation><Site><Name>SDSN</Name></Site><CreationDate>1990-01-01T00:00:00</CreationDate></Station><Station code="SFRN" startDate="1990-01-01T00:00:00" restrictedStatus="open"><Latitude>40.6062</Latitude><Longitude>29.2418</Longitude><Elevation>115</Elevation><Site><Name>SFRN</Name></Site><CreationDate>1990-01-01T00:00:00</CreationDate></Station><Station code="SLMY" startDate="2014-09-10T00:00:00" restrictedStatus="open"><Latitude>40.5176</Latitude><Longitude>28.9858</Longitude><Elevation>460</Elevation><Site><Name>SLMY</Name></Site><CreationDate>2014-09-10T00:00:00</CreationDate></Station><Station code="STBT" startDate="1990-01-01T00:00:00" restrictedStatus="open"><Latitude>40.1445</Latitude><Longitude>29.2384</Longitude><Elevation>721</Elevation><Site><Name>STBT</Name></Site><CreationDate>1990-01-01T00:00:00</CreationDate></Station><Station code="TRML" startDate="1990-01-01T00:00:00" restrictedStatus="open"><Latitude>40.6095</Latitude><Longitude>29.1735</Longitude><Elevation>204</Elevation><Site><Name>TRML</Name></Site><CreationDate>1990-01-01T00:00:00</CreationDate></Station><Station code="TSVK" startDate="1990-01-01T00:00:00" restrictedStatus="open"><Latitude>40.6267</Latitude><Longitude>29.0873</Longitude><Elevation>70</Elevation><Site><Name>TSVK</Name></Site><CreationDate>1990-01-01T00:00:00</CreationDate></Station><Station code="UNCK" startDate="1990-01-01T00:00:00" restrictedStatus="open"><Latitude>40.1171</Latitude><Longitude>28.7216</Longitude><Elevation>508</Elevation><Site><Name>UNCK</Name></Site><CreationDate>1990-01-01T00:00:00</CreationDate></Station><Station code="YGTL" startDate="1990-01-01T00:00:00" restrictedStatus="open"><Latitude>40.1762</Latitude><Longitude>29.0233</Longitude><Elevation>476</Elevation><Site><Name>YGTL</Name></Site><CreationDate>1990-01-01T00:00:00</CreationDate></Station><Station code="YYLC" startDate="1990-01-01T00:00:00" restrictedStatus="open"><Latitude>40.274</Latitude><Longitude>28.811</Longitude><Elevation>242</Elevation><Site><Name>YYLC</Name></Site><CreationDate>1990-01-01T00:00:00</CreationDate></Station><Station code="ZYBG" startDate="1990-01-01T00:00:00" restrictedStatus="open"><Latitude>40.39</Latitude><Longitude>28.7948</Longitude><Elevation>70</Elevation><Site><Name>ZYBG</Name></Site><CreationDate>1990-01-01T00:00:00</CreationDate></Station></Network><Network code="6G" startDate="2013-01-01T00:00:00" endDate="2015-09-30T00:00:00"><Description>TUBITAK</Description><Station code="AKHS" startDate="2013-01-01T00:00:00"><Latitude>38.879</Latitude><Longitude>27.814</Longitude><Elevation>370</Elevation><Site><Name>X</Name></Site><CreationDate>2013-01-01T00:00:00</CreationDate></Station><Station code="AYVA" startDate="2013-01-01T00:00:00"><Latitude>39.308</Latitude><Longitude>26.69</Longitude><Elevation>100</Elevation><Site><Name>X</Name></Site><CreationDate>2013-01-01T00:00:00</CreationDate></Station><Station code="BALY" startDate="2013-01-01T00:00:00"><Latitude>39.74</Latitude><Longitude>27.619</Longitude><Elevation>645</Elevation><Site><Name>X</Name></Site><CreationDate>2013-01-01T00:00:00</CreationDate></Station><Station code="BAYC" startDate="2013-01-01T00:00:00"><Latitude>39.741</Latitude><Longitude>26.547</Longitude><Elevation>349</Elevation><Site><Name>X</Name></Site><CreationDate>2013-01-01T00:00:00</CreationDate></Station><Station code="BOZC" startDate="2013-01-01T00:00:00"><Latitude>39.842</Latitude><Longitude>26.053</Longitude><Elevation>195</Elevation><Site><Name>X</Name></Site><CreationDate>2013-01-01T00:00:00</CreationDate></Station><Station code="BUHA" startDate="2013-01-01T00:00:00"><Latitude>39.501</Latitude><Longitude>27.077</Longitude><Elevation>258</Elevation><Site><Name>X</Name></Site><CreationDate>2013-01-01T00:00:00</CreationDate></Station><Station code="CAME" startDate="2013-01-01T00:00:00"><Latitude>38.748</Latitude><Longitude>27.312</Longitude><Elevation>279</Elevation><Site><Name>X</Name></Site><CreationDate>2013-01-01T00:00:00</CreationDate></Station><Station code="CMHM" startDate="2013-01-01T00:00:00"><Latitude>40.012</Latitude><Longitude>27.97</Longitude><Elevation>205</Elevation><Site><Name>X</Name></Site><CreationDate>2013-01-01T00:00:00</CreationDate></Station><Station code="DEMI" startDate="2013-01-01T00:00:00"><Latitude>39.043</Latitude><Longitude>28.716</Longitude><Elevation>920</Elevation><Site><Name>X</Name></Site><CreationDate>2013-01-01T00:00:00</CreationDate></Station><Station code="DURS" startDate="2013-01-01T00:00:00"><Latitude>39.601</Latitude><Longitude>28.47</Longitude><Elevation>960</Elevation><Site><Name>X</Name></Site><CreationDate>2013-01-01T00:00:00</CreationDate></Station><Station code="ELBA" startDate="2013-01-01T00:00:00"><Latitude>41.147</Latitude><Longitude>28.43</Longitude><Elevation>331</Elevation><Site><Name>X</Name></Site><CreationDate>2013-01-01T00:00:00</CreationDate></Station><Station code="EREM" startDate="2013-01-01T00:00:00"><Latitude>40.045</Latitude><Longitude>28.891</Longitude><Elevation>657</Elevation><Site><Name>X</Name></Site><CreationDate>2013-01-01T00:00:00</CreationDate></Station><Station code="KOCA" startDate="2013-01-01T00:00:00"><Latitude>39.502</Latitude><Longitude>26.138</Longitude><Elevation>292</Elevation><Site><Name>X</Name></Site><CreationDate>2013-01-01T00:00:00</CreationDate></Station><Station code="NEVM" startDate="2013-01-01T00:00:00"><Latitude>39.954</Latitude><Longitude>27.263</Longitude><Elevation>329</Elevation><Site><Name>X</Name></Site><CreationDate>2013-01-01T00:00:00</CreationDate></Station><Station code="SART" startDate="2013-01-01T00:00:00"><Latitude>40.689</Latitude><Longitude>27.18</Longitude><Elevation>679</Elevation><Site><Name>X</Name></Site><CreationDate>2013-01-01T00:00:00</CreationDate></Station><Station code="STEP" startDate="2013-01-01T00:00:00"><Latitude>39.377</Latitude><Longitude>27.718</Longitude><Elevation>519</Elevation><Site><Name>X</Name></Site><CreationDate>2013-01-01T00:00:00</CreationDate></Station><Station code="ZEDA" startDate="2013-01-01T00:00:00"><Latitude>38.967</Latitude><Longitude>27.077</Longitude><Elevation>179</Elevation><Site><Name>X</Name></Site><CreationDate>2013-01-01T00:00:00</CreationDate></Station><Station code="AKRS" startDate="2013-01-01T00:00:00"><Latitude>39.6857</Latitude><Longitude>28.02514</Longitude><Elevation>233</Elevation><Site><Name>X</Name></Site><CreationDate>2013-01-01T00:00:00</CreationDate></Station><Station code="BEYO" startDate="2013-01-01T00:00:00"><Latitude>39.63901</Latitude><Longitude>26.93194</Longitude><Elevation>251</Elevation><Site><Name>X</Name></Site><CreationDate>2013-01-01T00:00:00</CreationDate></Station><Station code="BOZM" startDate="2013-01-01T00:00:00"><Latitude>40.534</Latitude><Longitude>28.782</Longitude><Elevation>119</Elevation><Site><Name>X</Name></Site><CreationDate>2013-01-01T00:00:00</CreationDate></Station><Station code="BUYM" startDate="2013-01-01T00:00:00"><Latitude>40.852</Latitude><Longitude>29.118</Longitude><Elevation>231</Elevation><Site><Name>X</Name></Site><CreationDate>2013-01-01T00:00:00</CreationDate></Station><Station code="BZGM" startDate="2013-01-01T00:00:00"><Latitude>40.173</Latitude><Longitude>26.986</Longitude><Elevation>180</Elevation><Site><Name>X</Name></Site><CreationDate>2013-01-01T00:00:00</CreationDate></Station><Station code="CAGI" startDate="2013-01-01T00:00:00"><Latitude>39.51623</Latitude><Longitude>28.01518</Longitude><Elevation>275</Elevation><Site><Name>X</Name></Site><CreationDate>2013-01-01T00:00:00</CreationDate></Station><Station code="CAMT" startDate="2013-01-01T00:00:00"><Latitude>39.64985</Latitude><Longitude>27.8651</Longitude><Elevation>277</Elevation><Site><Name>X</Name></Site><CreationDate>2013-01-01T00:00:00</CreationDate></Station><Station code="DUVT" startDate="2013-01-01T00:00:00"><Latitude>39.23597</Latitude><Longitude>28.4305</Longitude><Elevation>698</Elevation><Site><Name>X</Name></Site><CreationDate>2013-01-01T00:00:00</CreationDate></Station><Station code="ESKM" startDate="2013-01-01T00:00:00"><Latitude>40.607</Latitude><Longitude>28.945</Longitude><Elevation>96</Elevation><Site><Name>X</Name></Site><CreationDate>2013-01-01T00:00:00</CreationDate></Station><Station code="GBZM" startDate="2013-01-01T00:00:00"><Latitude>40.786</Latitude><Longitude>29.45</Longitude><Elevation>270</Elevation><Site><Name>X</Name></Site><CreationDate>2013-01-01T00:00:00</CreationDate></Station><Station code="HAMK" startDate="2013-01-01T00:00:00"><Latitude>40.171</Latitude><Longitude>29.186</Longitude><Elevation>335</Elevation><Site><Name>X</Name></Site><CreationDate>2013-01-01T00:00:00</CreationDate></Station><Station code="HSYN" startDate="2013-01-01T00:00:00"><Latitude>39.54993</Latitude><Longitude>27.30218</Longitude><Elevation>565</Elevation><Site><Name>X</Name></Site><CreationDate>2013-01-01T00:00:00</CreationDate></Station><Station code="IGDM" startDate="2013-01-01T00:00:00"><Latitude>40.264</Latitude><Longitude>29.201</Longitude><Elevation>165</Elevation><Site><Name>X</Name></Site><CreationDate>2013-01-01T00:00:00</CreationDate></Station><Station code="KBKT" startDate="2013-01-01T00:00:00"><Latitude>39.69028</Latitude><Longitude>27.81532</Longitude><Elevation>433</Elevation><Site><Name>X</Name></Site><CreationDate>2013-01-01T00:00:00</CreationDate></Station><Station code="KKZM" startDate="2013-01-01T00:00:00"><Latitude>41.127</Latitude><Longitude>27.345</Longitude><Elevation>143</Elevation><Site><Name>X</Name></Site><CreationDate>2013-01-01T00:00:00</CreationDate></Station><Station code="KLCM" startDate="2013-01-01T00:00:00"><Latitude>40.633</Latitude><Longitude>29.398</Longitude><Elevation>170</Elevation><Site><Name>X</Name></Site><CreationDate>2013-01-01T00:00:00</CreationDate></Station><Station code="KMRM" startDate="2013-01-01T00:00:00"><Latitude>40.418</Latitude><Longitude>27.069</Longitude><Elevation>40</Elevation><Site><Name>X</Name></Site><CreationDate>2013-01-01T00:00:00</CreationDate></Station><Station code="KNLM" startDate="2013-01-01T00:00:00"><Latitude>40.27</Latitude><Longitude>27.526</Longitude><Elevation>178</Elevation><Site><Name>X</Name></Site><CreationDate>2013-01-01T00:00:00</CreationDate></Station><Station code="KRCM" startDate="2013-01-01T00:00:00"><Latitude>40.265</Latitude><Longitude>28.332</Longitude><Elevation>443</Elevation><Site><Name>X</Name></Site><CreationDate>2013-01-01T00:00:00</CreationDate></Station><Station code="KUYC" startDate="2013-01-01T00:00:00"><Latitude>39.46075</Latitude><Longitude>27.04681</Longitude><Elevation>483</Elevation><Site><Name>X</Name></Site><CreationDate>2013-01-01T00:00:00</CreationDate></Station><Station code="KVKM" startDate="2013-01-01T00:00:00"><Latitude>40.604</Latitude><Longitude>26.888</Longitude><Elevation>75</Elevation><Site><Name>X</Name></Site><CreationDate>2013-01-01T00:00:00</CreationDate></Station><Station code="MADM" startDate="2013-01-01T00:00:00"><Latitude>40.564</Latitude><Longitude>27.665</Longitude><Elevation>40</Elevation><Site><Name>X</Name></Site><CreationDate>2013-01-01T00:00:00</CreationDate></Station><Station code="MARM" startDate="2013-01-01T00:00:00"><Latitude>40.967</Latitude><Longitude>27.961</Longitude><Elevation>43</Elevation><Site><Name>X</Name></Site><CreationDate>2013-01-01T00:00:00</CreationDate></Station><Station code="MSDM" startDate="2013-01-01T00:00:00"><Latitude>40.349</Latitude><Longitude>28.6</Longitude><Elevation>201</Elevation><Site><Name>X</Name></Site><CreationDate>2013-01-01T00:00:00</CreationDate></Station><Station code="OMRT" startDate="2013-01-01T00:00:00"><Latitude>40.971</Latitude><Longitude>28.604</Longitude><Elevation>56</Elevation><Site><Name>X</Name></Site><CreationDate>2013-01-01T00:00:00</CreationDate></Station><Station code="SGTM" startDate="2013-01-01T00:00:00"><Latitude>40.767</Latitude><Longitude>27.108</Longitude><Elevation>295</Elevation><Site><Name>X</Name></Site><CreationDate>2013-01-01T00:00:00</CreationDate></Station><Station code="SLVM" startDate="2013-01-01T00:00:00"><Latitude>41.073</Latitude><Longitude>28.14</Longitude><Elevation>30</Elevation><Site><Name>X</Name></Site><CreationDate>2013-01-01T00:00:00</CreationDate></Station><Station code="ATIM" startDate="2013-01-01T00:00:00"><Latitude>40.083</Latitude><Longitude>27.563</Longitude><Elevation>230</Elevation><Site><Name>X</Name></Site><CreationDate>2013-01-01T00:00:00</CreationDate></Station><Station code="SNLM" startDate="2013-01-01T00:00:00"><Latitude>41.228</Latitude><Longitude>28.209</Longitude><Elevation>173</Elevation><Site><Name>X</Name></Site><CreationDate>2013-01-01T00:00:00</CreationDate></Station><Station code="TEPT" startDate="2013-01-01T00:00:00"><Latitude>41.064</Latitude><Longitude>28.509</Longitude><Elevation>91</Elevation><Site><Name>X</Name></Site><CreationDate>2013-01-01T00:00:00</CreationDate></Station><Station code="TRNM" startDate="2013-01-01T00:00:00"><Latitude>40.505</Latitude><Longitude>27.778</Longitude><Elevation>80</Elevation><Site><Name>X</Name></Site><CreationDate>2013-01-01T00:00:00</CreationDate></Station><Station code="YNKM" startDate="2013-01-01T00:00:00"><Latitude>40.826</Latitude><Longitude>27.397</Longitude><Elevation>370</Elevation><Site><Name>X</Name></Site><CreationDate>2013-01-01T00:00:00</CreationDate></Station></Network></FDSNStationXML>
